{"type":"FeatureCollection","features":[{"type":"Feature","properties":{"OBJECTID_1":1,"OBJECTID":1,"NAME":"Steele Creek Division","STBLKNO":2227,"STDIR":" ","STNAME":"WESTINGHOUSE","STTYPE":"Bv","SUITE":" ","ADDRESS":"2227 WESTINGHOUSE BV","X":1419153,"Y":507731,"City":"Charlotte","State":"NC","Zip":"28273","GlobalID":"db318949-09b5-4fdf-8e1c-0b108372308a","CreationDate":"2018-11-17T10:01:48.237Z","Creator":"CharlotteNC","EditDate":"2018-11-17T10:01:48.237Z","Editor":"CharlotteNC"},"geometry":{"type":"Point","coordinates":[-80.94281565376032,35.12947416386795]}},{"type":"Feature","properties":{"OBJECTID_1":2,"OBJECTID":2,"NAME":"South Division","STBLKNO":8050,"STDIR":" ","STNAME":"CORPORATE CENTER","STTYPE":"DR","SUITE":"100","ADDRESS":"8050 SUITE  CORPORATE CENTER DR  SUITE 100","X":1444638,"Y":491395,"City":"Charlotte","State":"NC","Zip":"28226","GlobalID":"0d16b5be-f8ae-4497-a5e7-b345804fcd9d","CreationDate":"2018-11-17T10:01:48.237Z","Creator":"CharlotteNC","EditDate":"2018-11-17T10:01:48.237Z","Editor":"CharlotteNC"},"geometry":{"type":"Point","coordinates":[-80.85657216690885,35.0859356696823]}},{"type":"Feature","properties":{"OBJECTID_1":3,"OBJECTID":3,"NAME":"Eastway Division","STBLKNO":3505,"STDIR":" ","STNAME":"CENTRAL","STTYPE":"AV","SUITE":" ","ADDRESS":"3505 CENTRAL AVE","X":1466679,"Y":538447,"City":"Charlotte","State":"NC","Zip":"28205","GlobalID":"36aca867-4da3-4366-941c-dc1d23b955d7","CreationDate":"2018-11-17T10:01:48.237Z","Creator":"CharlotteNC","EditDate":"2018-11-17T10:01:48.237Z","Editor":"CharlotteNC"},"geometry":{"type":"Point","coordinates":[-80.78573476790018,35.216309632095076]}},{"type":"Feature","properties":{"OBJECTID_1":4,"OBJECTID":4,"NAME":"Family Services Division","STBLKNO":601,"STDIR":"E","STNAME":"5TH","STTYPE":"ST","SUITE":" ","ADDRESS":"601 E 5TH ST","X":1451582,"Y":541409,"City":"Charlotte","State":"NC","Zip":" ","GlobalID":"90b69da2-551c-43c0-bc6a-8f2fc6791076","CreationDate":"2018-11-17T10:01:48.237Z","Creator":"CharlotteNC","EditDate":"2018-11-17T10:01:48.237Z","Editor":"CharlotteNC"},"geometry":{"type":"Point","coordinates":[-80.83645647801634,35.22369015519719]}},{"type":"Feature","properties":{"OBJECTID_1":5,"OBJECTID":5,"NAME":"Freedom Division","STBLKNO":4150,"STDIR":" ","STNAME":"WILKINSON","STTYPE":"BV","SUITE":" ","ADDRESS":"4150  WILKINSON BV","X":1430149,"Y":542795,"City":"Charlotte","State":"NC","Zip":"28208","GlobalID":"4a861dcb-ec72-4fb3-9ad2-51f243dfd3a9","CreationDate":"2018-11-17T10:01:48.237Z","Creator":"CharlotteNC","EditDate":"2018-11-17T10:01:48.237Z","Editor":"CharlotteNC"},"geometry":{"type":"Point","coordinates":[-80.9082997144494,35.22638705042786]}},{"type":"Feature","properties":{"OBJECTID_1":6,"OBJECTID":6,"NAME":"Providence Division","STBLKNO":715,"STDIR":"N","STNAME":"WENDOVER","STTYPE":"RD","SUITE":" ","ADDRESS":"715 WENDOVER RD","X":1462080,"Y":528869,"City":"Charlotte","State":"NC","Zip":"28206","GlobalID":"98d15d8a-d46c-41d7-81fd-3dea80a4099c","CreationDate":"2018-11-17T10:01:48.237Z","Creator":"CharlotteNC","EditDate":"2018-11-17T10:01:48.237Z","Editor":"CharlotteNC"},"geometry":{"type":"Point","coordinates":[-80.80054869527153,35.18976842752481]}},{"type":"Feature","properties":{"OBJECTID_1":7,"OBJECTID":7,"NAME":"Independence Division","STBLKNO":9315,"STDIR":" ","STNAME":"MONROE","STTYPE":"RD","SUITE":"G","ADDRESS":"9315 MONROE RD SUITE G","X":1479503,"Y":512062,"City":"Charlotte","State":"NC","Zip":"28270","GlobalID":"0f0f6111-1697-4c83-9152-b52e8c73289d","CreationDate":"2018-11-17T10:01:48.237Z","Creator":"CharlotteNC","EditDate":"2018-11-17T10:01:48.237Z","Editor":"CharlotteNC"},"geometry":{"type":"Point","coordinates":[-80.74125526490369,35.14444925456891]}},{"type":"Feature","properties":{"OBJECTID_1":8,"OBJECTID":8,"NAME":"Hickory Grove Division","STBLKNO":5727,"STDIR":"N","STNAME":"SHARON AMITY","STTYPE":"RD","SUITE":"A","ADDRESS":"5727 N SHARON AMITY RD SUITE A","X":1480735,"Y":545136,"City":"Charlotte","State":"NC","Zip":"28215","GlobalID":"418c6448-f4c3-4759-899f-a43bd5c5a94d","CreationDate":"2018-11-17T10:01:48.237Z","Creator":"CharlotteNC","EditDate":"2018-11-17T10:01:48.237Z","Editor":"CharlotteNC"},"geometry":{"type":"Point","coordinates":[-80.73907276068759,35.23537155734962]}},{"type":"Feature","properties":{"OBJECTID_1":9,"OBJECTID":9,"NAME":"Central Division","STBLKNO":119,"STDIR":"E","STNAME":"SEVENTH","STTYPE":"ST","SUITE":"2B","ADDRESS":"119 E SEVENTH ST SUITE 2B","X":1450901,"Y":543377,"City":"Charlotte","State":"NC","Zip":"28202","GlobalID":"03a45719-c644-49a7-9943-ee3b2d9816cb","CreationDate":"2018-11-17T10:01:48.237Z","Creator":"CharlotteNC","EditDate":"2018-11-17T10:01:48.237Z","Editor":"CharlotteNC"},"geometry":{"type":"Point","coordinates":[-80.83885843982736,35.22906200666446]}},{"type":"Feature","properties":{"OBJECTID_1":10,"OBJECTID":10,"NAME":"North Tryon Division","STBLKNO":4045,"STDIR":"N","STNAME":"TRYON","STTYPE":"ST","SUITE":"B","ADDRESS":"4045  N TRYON ST SUITE B","X":1463433,"Y":553529,"City":"Charlotte","State":"NC","Zip":"28206","GlobalID":"9f36e8c3-0fe5-478a-b33e-a0c271ff435a","CreationDate":"2018-11-17T10:01:48.237Z","Creator":"CharlotteNC","EditDate":"2018-11-17T10:01:48.237Z","Editor":"CharlotteNC"},"geometry":{"type":"Point","coordinates":[-80.79751534246779,35.25758223467373]}},{"type":"Feature","properties":{"OBJECTID_1":11,"OBJECTID":11,"NAME":"Academy","STBLKNO":1770,"STDIR":" ","STNAME":"SHOPTON","STTYPE":"RD","SUITE":" ","ADDRESS":"1770  SHOPTON RD","X":1426315,"Y":520606,"City":"Charlotte","State":"NC","Zip":"28217","GlobalID":"d261144e-c28b-4a15-b4ea-05e8387868ac","CreationDate":"2018-11-17T10:01:48.237Z","Creator":"CharlotteNC","EditDate":"2018-11-17T10:01:48.237Z","Editor":"CharlotteNC"},"geometry":{"type":"Point","coordinates":[-80.91969893099946,35.16522694978815]}},{"type":"Feature","properties":{"OBJECTID_1":12,"OBJECTID":12,"NAME":"North Division","STBLKNO":10430,"STDIR":" ","STNAME":"HARRIS OAKS","STTYPE":"BV","SUITE":"R","ADDRESS":"10430  HARRIS OAKS BV SUITE R","X":1450357,"Y":585088,"City":"Charlotte","State":"NC","Zip":"28269","GlobalID":"6362e7ff-0010-4b38-90f6-d2dc4ca29b35","CreationDate":"2018-11-17T10:01:48.237Z","Creator":"CharlotteNC","EditDate":"2018-11-17T10:01:48.237Z","Editor":"CharlotteNC"},"geometry":{"type":"Point","coordinates":[-80.84327319921314,35.34362147242832]}},{"type":"Feature","properties":{"OBJECTID_1":13,"OBJECTID":13,"NAME":"Metro Division","STBLKNO":1118,"STDIR":" ","STNAME":"BEATTIES FORD","STTYPE":"RD","SUITE":" ","ADDRESS":"1118 BEATTIES FORD RD","X":1446042,"Y":552318,"City":"Charlotte","State":"NC","Zip":"28216","GlobalID":"b7b468ad-edb8-4e0a-a951-35641c0844fa","CreationDate":"2018-11-17T10:01:48.237Z","Creator":"CharlotteNC","EditDate":"2018-11-17T10:01:48.237Z","Editor":"CharlotteNC"},"geometry":{"type":"Point","coordinates":[-80.85568643122886,35.25337618498486]}},{"type":"Feature","properties":{"OBJECTID_1":14,"OBJECTID":14,"NAME":"Westover Division","STBLKNO":2550,"STDIR":" ","STNAME":"WEST","STTYPE":"BV","SUITE":" ","ADDRESS":"2550 WEST BV","X":1431237,"Y":537290,"City":"Charlotte","State":"NC","Zip":"28208","GlobalID":"af6444bd-3c59-45ff-a4ee-b58b3252237c","CreationDate":"2018-11-17T10:01:48.237Z","Creator":"CharlotteNC","EditDate":"2018-11-17T10:01:48.237Z","Editor":"CharlotteNC"},"geometry":{"type":"Point","coordinates":[-80.9043035577795,35.21132130243161]}},{"type":"Feature","properties":{"OBJECTID_1":15,"OBJECTID":15,"NAME":"University City Division","STBLKNO":8401,"STDIR":" ","STNAME":"UNIVERSITY EXEC PARK","STTYPE":"DR","SUITE":"120","ADDRESS":"8401  UNIVERSITY EXEC PARK DR SUITE 120","X":1476611,"Y":569994,"City":"Charlotte","State":"NC","Zip":"28262","GlobalID":"e682a3e9-27c8-4c25-9c65-5f51da77fcef","CreationDate":"2018-11-17T10:01:48.237Z","Creator":"CharlotteNC","EditDate":"2018-11-17T10:01:48.237Z","Editor":"CharlotteNC"},"geometry":{"type":"Point","coordinates":[-80.75435270052343,35.30346270721377]}},{"type":"Feature","properties":{"OBJECTID_1":16,"OBJECTID":16,"NAME":"Airport Division","STBLKNO":1750,"STDIR":" ","STNAME":"SHOPTON","STTYPE":"RD","SUITE":" ","ADDRESS":"1750 SHOPTON RD","X":1426669,"Y":520671,"City":"Charlotte","State":"NC","Zip":"28217","GlobalID":"f3d899d8-91fa-4c70-949d-bf1994e7f8c4","CreationDate":"2018-11-17T10:01:48.237Z","Creator":"CharlotteNC","EditDate":"2018-11-17T10:01:48.237Z","Editor":"CharlotteNC"},"geometry":{"type":"Point","coordinates":[-80.91851863813422,35.165425331212596]}}]}